[
  {
    "nome": "Abrahão Federmann",
    "lat": -25.0883606,
    "lng": -50.1435159,
    "ramal": 3001
  },
  {
    "nome": "Adam Polan",
    "lat": -25.068633,
    "lng": -50.1762305,
    "ramal": 3002
  },
  {
    "nome": "Adão Ademar Andrade",
    "lat": -25.098774,
    "lng": -50.187086,
    "ramal": 3003
  },
  {
    "nome": "Adilson Baggio",
    "lat": -25.0987748,
    "lng": -50.1870865,
    "ramal": 3004
  },
  {
    "nome": "Agostinho Brenner",
    "lat": -25.1362692,
    "lng": -50.1596708,
    "ramal": 3005
  },
  {
    "nome": "Alfredo Levandovski",
    "lat": -25.1284257,
    "lng": -50.2150305,
    "ramal": 3006
  },
  {
    "nome": "Aluízio Grochoski",
    "lat": -25.1144266,
    "lng": -50.1484859,
    "ramal": 3007
  },
  {
    "nome": "Ambrosio Bricailo",
    "lat": -25.0695016,
    "lng": -50.2053617,
    "ramal": 3008
  },
  {
    "nome": "Antero Machado de Mello",
    "lat": -25.0712259,
    "lng": -50.1237873,
    "ramal": 3009
  },
  {
    "nome": "Antônio Horácio Carlos de Miranda",
    "lat": -25.0513209,
    "lng": -50.1453537,
    "ramal": 3010
  },
  {
    "nome": "Antônio Russo",
    "lat": -25.0816576,
    "lng": -50.169207,
    "ramal": 3011
  },
  {
    "nome": "Antônio Saliba",
    "lat": -25.1165091,
    "lng": -50.1185003,
    "ramal": 3012
  },
  {
    "nome": "Antônio Schwanzee",
    "lat": -25.0666729,
    "lng": -50.211814,
    "ramal": 3013
  },
  {
    "nome": "Aurélio Grott",
    "lat": -25.0636402,
    "lng": -50.1905085,
    "ramal": 3014
  },
  {
    "nome": "Carlos Dezaunet Neto",
    "lat": -25.1060537,
    "lng": -50.2262071,
    "ramal": 3015
  },
  {
    "nome": "Carlos Ribeiro de Macedo",
    "lat": -25.0695465,
    "lng": -50.2150324,
    "ramal": 3016
  },
  {
    "nome": "Cézar Rocha Milleo",
    "lat": -25.0846674,
    "lng": -50.2003776,
    "ramal": 3017
  },
  {
    "nome": "Cleon Francisco Carlos de Macedo",
    "lat": -25.088998,
    "lng": -50.0937606,
    "ramal": 3018
  },
  {
    "nome": "Clyceu Carlos de Macedo",
    "lat": -25.1163927,
    "lng": -50.2081645,
    "ramal": 3019
  },
  {
    "nome": "Cyro de Lima Garcia",
    "lat": -25.126373,
    "lng": -50.1567813,
    "ramal": 3020
  },
  {
    "nome": "Egon Roskamp",
    "lat": -25.0965181,
    "lng": -50.2058872,
    "ramal": 3021
  },
  {
    "nome": "Eugênio José Bocchi",
    "lat": -25.0723648,
    "lng": -50.1840693,
    "ramal": 3022
  },
  {
    "nome": "Ezebedeu Linhares",
    "lat": -25.137852,
    "lng": -50.1440709,
    "ramal": 3023
  },
  {
    "nome": "Félix Vianna",
    "lat": -25.0906296,
    "lng": -50.1870622,
    "ramal": 3024
  },
  {
    "nome": "Horácio Droppa",
    "lat": -25.1199569,
    "lng": -50.105237,
    "ramal": 3025
  },
  {
    "nome": "Jamil Mussi",
    "lat": -25.0855294,
    "lng": -50.209503,
    "ramal": 3026
  },
  {
    "nome": "Javier Cejas Arzabe",
    "lat": -25.0573573,
    "lng": -50.2227946,
    "ramal": 3027
  },
  {
    "nome": "Jayme Gusman",
    "lat": -25.110742,
    "lng": -50.1634866,
    "ramal": 3028
  },
  {
    "nome": "José Bueno",
    "lat": -25.0635215,
    "lng": -50.2013529,
    "ramal": 3029
  },
  {
    "nome": "José Carlos Araújo",
    "lat": -25.1780598,
    "lng": -50.1449475,
    "ramal": 3030
  },
  {
    "nome": "Júlio de Azevedo",
    "lat": -25.0750261,
    "lng": -50.1502122,
    "ramal": 3031
  },
  {
    "nome": "Lauro Müller",
    "lat": -25.148838,
    "lng": -50.1669779,
    "ramal": 3032
  },
  {
    "nome": "Louis Atanásio Charles Büron",
    "lat": -25.0413765,
    "lng": -50.2479864,
    "ramal": 3033
  },
  {
    "nome": "Lubomir Antônio Urban",
    "lat": -25.0789518,
    "lng": -50.1334014,
    "ramal": 3034
  },
  {
    "nome": "Luiz Conrado Mansani",
    "lat": -25.0916973,
    "lng": -50.1165346,
    "ramal": 3035
  },
  {
    "nome": "Luiz Fernando Cajado de Oliveira Braga",
    "lat": -25.0444287,
    "lng": -50.2653642,
    "ramal": 3036
  },
  {
    "nome": "Madre Josefa Stenmanns",
    "lat": -25.0987486,
    "lng": -50.1414118,
    "ramal": 3037
  },
  {
    "nome": "Nilton Luiz de Castro",
    "lat": -25.1074933,
    "lng": -50.1090829,
    "ramal": 3038
  },
  {
    "nome": "Ottoniel Pimentel dos Santos",
    "lat": -25.128586,
    "lng": -50.146403,
    "ramal": 3039
  },
  {
    "nome": "Paulo Madureira Novaes",
    "lat": -25.0870618,
    "lng": -50.1985952,
    "ramal": 3040
  },
  {
    "nome": "Roberto de Jesus Portela",
    "lat": -25.1030381,
    "lng": -50.1759678,
    "ramal": 3041
  },
  {
    "nome": "Romulo Pazzinato",
    "lat": -25.0820992,
    "lng": -50.1890972,
    "ramal": 3042
  },
  {
    "nome": "Sady de Macedo Silveira",
    "lat": -25.1053007,
    "lng": -50.1603172,
    "ramal": 3043
  },
  {
    "nome": "Santo Domingo Zampier",
    "lat": -25.0572527,
    "lng": -50.1072953,
    "ramal": 3044
  },
  {
    "nome": "Sharise Angélica Arruda",
    "lat": -25.1335856,
    "lng": -50.1175446,
    "ramal": 3045
  },
  {
    "nome": "Silas Sallen",
    "lat": -25.0862354,
    "lng": -50.1182784,
    "ramal": 3046
  },
  {
    "nome": "Zilda Arns",
    "lat": -25.0585141,
    "lng": -50.1633409,
    "ramal": 3047
  },
  {
    "nome": "UPA Uvaranas",
    "lat": -25.0910575,
    "lng": -50.1109483,
    "ramal": 4001
  },
  {
    "nome": "UPA Santana",
    "lat": -25.102523,
    "lng": -50.1608855,
    "ramal": 4002
  },
  {
    "nome": "UPA Santa Paula",
    "lat": -25.102144,
    "lng": -50.201616,
    "ramal": 4003
  }
]
